[
    {
        "name": "Kolombo Kebap",
        "coordinates": [
            40.9819815,
            29.0229913
        ]
    },
    {
        "name": "\u00c7iya Kebap 2",
        "coordinates": [
            40.989463,
            29.0243594
        ]
    },
    {
        "name": "Murat Karadeniz Pide",
        "coordinates": [
            40.977739,
            29.0802212
        ]
    },
    {
        "name": "C\u0131zb\u0131z K\u00f6fte",
        "coordinates": [
            40.9772048,
            29.0792173
        ]
    },
    {
        "name": "Pehlivan",
        "coordinates": [
            40.9905661,
            29.0247947
        ]
    },
    {
        "name": "Asmakat",
        "coordinates": [
            40.9851586,
            29.0267607
        ]
    },
    {
        "name": "Handmade Burger Co.",
        "coordinates": [
            40.9872396,
            29.0277667
        ]
    },
    {
        "name": "My Chef",
        "coordinates": [
            40.9872627,
            29.0275241
        ]
    },
    {
        "name": "Pidenem",
        "coordinates": [
            40.987158,
            29.027725
        ]
    },
    {
        "name": "Rosa",
        "coordinates": [
            40.9812268,
            29.0226592
        ]
    },
    {
        "name": "K\u00f6y\u00fcm Pidecisi",
        "coordinates": [
            40.9819366,
            29.0229711
        ]
    },
    {
        "name": "Viktor Levi \u015earap Evi",
        "coordinates": [
            40.9873504,
            29.0260508
        ]
    },
    {
        "name": "Havelka",
        "coordinates": [
            40.9649076,
            29.0658986
        ]
    },
    {
        "name": "Khalkedon Kalam\u0131\u015f",
        "coordinates": [
            40.9814605,
            29.0372757
        ]
    },
    {
        "name": "Chicken Last Stop",
        "coordinates": [
            40.9911042,
            29.023952
        ]
    },
    {
        "name": "K\u00f6fteci Ramiz",
        "coordinates": [
            40.9904416,
            29.0294732
        ]
    },
    {
        "name": "Ekspres \u0130neg\u00f6l K\u00f6ftecisi",
        "coordinates": [
            40.990307,
            29.0239636
        ]
    },
    {
        "name": "\u015eelale",
        "coordinates": [
            40.9890527,
            29.024041
        ]
    },
    {
        "name": "T\u00f6rek",
        "coordinates": [
            40.9849205,
            29.026631
        ]
    },
    {
        "name": "Zevk Lokanta",
        "coordinates": [
            40.9855903,
            29.0275689
        ]
    },
    {
        "name": "Pehlivan",
        "coordinates": [
            40.9915565,
            29.0313696
        ]
    },
    {
        "name": "Casa di Moda",
        "coordinates": [
            40.9815478,
            29.0219332
        ]
    },
    {
        "name": "\u015e\u00f6len",
        "coordinates": [
            40.9729054,
            29.074449
        ]
    },
    {
        "name": "Happy Moon's Kad\u0131k\u00f6y",
        "coordinates": [
            40.988153,
            29.0282951
        ]
    },
    {
        "name": "SushiCo Suadiye",
        "coordinates": [
            40.9568872,
            29.0875306
        ]
    },
    {
        "name": "Belv\u00fc Jardin Restaurant",
        "coordinates": [
            40.9716441,
            29.0384856
        ]
    },
    {
        "name": "Draft Gastropub",
        "coordinates": [
            40.9996609,
            29.0384683
        ]
    },
    {
        "name": "\u00c7anak Kebap",
        "coordinates": [
            41.0054361,
            29.045525
        ]
    },
    {
        "name": "Remina",
        "coordinates": [
            40.9774225,
            29.0412834
        ]
    },
    {
        "name": "SushiCo Kalam\u0131\u015f",
        "coordinates": [
            40.9773581,
            29.0410433
        ]
    },
    {
        "name": "Ekspres \u0130neg\u00f6l K\u00f6ftecisi",
        "coordinates": [
            40.9736516,
            29.0562321
        ]
    },
    {
        "name": "Flamingo",
        "coordinates": [
            40.9738071,
            29.0559637
        ]
    },
    {
        "name": "An-gu-ye B\u00fcfe",
        "coordinates": [
            40.9954574,
            29.0292277
        ]
    },
    {
        "name": "Kadi Nimet Bal\u0131k\u00e7\u0131l\u0131k",
        "coordinates": [
            40.9901815,
            29.0249696
        ]
    },
    {
        "name": "Sultanahmet K\u00f6ftecisi",
        "coordinates": [
            40.9760107,
            29.0509596
        ]
    },
    {
        "name": "Morello Cafe",
        "coordinates": [
            40.9779091,
            29.0466095
        ]
    },
    {
        "name": "D\u00fcr\u00fcmc\u00fc Emmi",
        "coordinates": [
            40.9917079,
            29.0336631
        ]
    },
    {
        "name": "Binbir Tad\u0131m D\u00f6ner",
        "coordinates": [
            40.9798883,
            29.0670661
        ]
    },
    {
        "name": "Fatel",
        "coordinates": [
            40.9826932,
            29.0391803
        ]
    },
    {
        "name": "Kom\u015fu",
        "coordinates": [
            40.9826383,
            29.0393573
        ]
    },
    {
        "name": "Nane Gastropub",
        "coordinates": [
            40.9825808,
            29.0394996
        ]
    },
    {
        "name": "Fit House sa\u011fl\u0131kl\u0131 yemek",
        "coordinates": [
            40.9733793,
            29.0413025
        ]
    },
    {
        "name": "Mano Burger",
        "coordinates": [
            40.9658698,
            29.0667298
        ]
    },
    {
        "name": "Yusuf Ustan\u0131n Yeri",
        "coordinates": [
            40.9601845,
            29.0914582
        ]
    },
    {
        "name": "Selanik Rodop K\u00f6fte",
        "coordinates": [
            40.9618563,
            29.0916299
        ]
    },
    {
        "name": "Samsun Pide Evi",
        "coordinates": [
            40.9630537,
            29.0897487
        ]
    },
    {
        "name": "Happy Moon's",
        "coordinates": [
            40.9668872,
            29.0678138
        ]
    },
    {
        "name": "B\u0130Z\u0130M D\u00d6NER",
        "coordinates": [
            41.0115169,
            29.0388244
        ]
    },
    {
        "name": "KO\u015eUYOLU DALYAN",
        "coordinates": [
            41.0115506,
            29.0389729
        ]
    },
    {
        "name": "Ustaca Kebap",
        "coordinates": [
            41.0108949,
            29.0382888
        ]
    },
    {
        "name": "Olivia's Pizzeria",
        "coordinates": [
            40.972995,
            29.0573594
        ]
    },
    {
        "name": "Marmaris B\u00fcfe \u015ea\u015fk\u0131nbakkal",
        "coordinates": [
            40.9623109,
            29.076188
        ]
    },
    {
        "name": "Yako Ocakba\u015f\u0131",
        "coordinates": [
            40.9731689,
            29.0407496
        ]
    },
    {
        "name": "Has\u0131r Ev Yemekleri",
        "coordinates": [
            40.9869128,
            29.0313778
        ]
    },
    {
        "name": "Cafe Cambridge",
        "coordinates": [
            40.9923709,
            29.0283756
        ]
    },
    {
        "name": "Juliet",
        "coordinates": [
            40.9816241,
            29.0311604
        ]
    },
    {
        "name": "Pizzeria Il Pellicano",
        "coordinates": [
            40.9834123,
            29.0298089
        ]
    },
    {
        "name": "Paul's Homemade Pasta & Lasagna",
        "coordinates": [
            40.9837357,
            29.0285419
        ]
    },
    {
        "name": "Pinsa",
        "coordinates": [
            40.9812187,
            29.0234611
        ]
    },
    {
        "name": "Fornello Pizzeria",
        "coordinates": [
            40.9901099,
            29.0251626
        ]
    },
    {
        "name": "Sema Han\u0131m\u0131n Yeri",
        "coordinates": [
            40.9872815,
            29.0282004
        ]
    },
    {
        "name": "Bi'Bu\u00e7uk",
        "coordinates": [
            40.9675929,
            29.0658896
        ]
    },
    {
        "name": "Burrito Shop",
        "coordinates": [
            40.9678124,
            29.066109
        ]
    },
    {
        "name": "Ali Baba",
        "coordinates": [
            40.9902999,
            29.0249583
        ]
    },
    {
        "name": "Asirlik Kebap",
        "coordinates": [
            40.9892241,
            29.024417
        ]
    },
    {
        "name": "M\u00fcdavim lokantas\u0131",
        "coordinates": [
            40.9952125,
            29.0296422
        ]
    },
    {
        "name": "Kebab House",
        "coordinates": [
            40.9875737,
            29.0610851
        ]
    },
    {
        "name": "\u00c7i\u011fk\u00f6ftem",
        "coordinates": [
            40.9592499,
            29.0957306
        ]
    },
    {
        "name": "\u015eampiyon Kokere\u00e7",
        "coordinates": [
            40.9560479,
            29.0993286
        ]
    },
    {
        "name": "\u015een Lokantas\u0131",
        "coordinates": [
            40.9549655,
            29.0942844
        ]
    },
    {
        "name": "Erkonyal\u0131lar",
        "coordinates": [
            40.9574619,
            29.0950636
        ]
    },
    {
        "name": "Ay\u015fenin Mutfa\u011f\u0131",
        "coordinates": [
            40.9592401,
            29.095719
        ]
    },
    {
        "name": "Selmikan\u0131n Mutfa\u011f\u0131",
        "coordinates": [
            40.9576982,
            29.0971662
        ]
    },
    {
        "name": "Huzur Kebap",
        "coordinates": [
            40.9578727,
            29.0976138
        ]
    },
    {
        "name": "Tak\u0131nt\u0131 Restaurant",
        "coordinates": [
            40.9582612,
            29.0983018
        ]
    },
    {
        "name": "Pizza Lazza",
        "coordinates": [
            40.959486,
            29.0945044
        ]
    },
    {
        "name": "Arsamiea \u00c7i\u011fK\u00f6fte",
        "coordinates": [
            40.9568734,
            29.0968082
        ]
    },
    {
        "name": "Erenler Sofras\u0131",
        "coordinates": [
            40.9551521,
            29.0950849
        ]
    },
    {
        "name": "Me\u015fhur Sar\u0131yer B\u00f6rek\u00e7isi",
        "coordinates": [
            40.9542831,
            29.096003
        ]
    },
    {
        "name": "Elvan Kebap",
        "coordinates": [
            40.9555985,
            29.0942389
        ]
    },
    {
        "name": "Bostanc\u0131 K\u00f6ftecisi",
        "coordinates": [
            40.9558097,
            29.0942374
        ]
    },
    {
        "name": "Pass D\u00f6ner",
        "coordinates": [
            40.9558426,
            29.0942613
        ]
    },
    {
        "name": "Abov Kebap",
        "coordinates": [
            40.9559512,
            29.0903072
        ]
    },
    {
        "name": "Big Chefs",
        "coordinates": [
            40.9562401,
            29.0896766
        ]
    },
    {
        "name": "Re\u015fat Bal\u0131k",
        "coordinates": [
            40.9565188,
            29.0883216
        ]
    },
    {
        "name": "Le Pain Quotidien",
        "coordinates": [
            40.9574545,
            29.0871577
        ]
    },
    {
        "name": "Ad\u0131yman \u00c7i\u011fk\u00f6fte",
        "coordinates": [
            40.9628857,
            29.1000767
        ]
    },
    {
        "name": "Minik Usta",
        "coordinates": [
            40.9639749,
            29.1005711
        ]
    },
    {
        "name": "\u015eule'nin Mutfa\u011f\u0131",
        "coordinates": [
            40.9614675,
            29.0930282
        ]
    },
    {
        "name": "Trabzon K\u00f6y Tereya\u011f\u0131",
        "coordinates": [
            40.965791,
            29.0877814
        ]
    },
    {
        "name": "\u00dcstad Burger",
        "coordinates": [
            40.9626619,
            29.0851618
        ]
    },
    {
        "name": "Ustam Ocakba\u015f\u0131",
        "coordinates": [
            40.9682407,
            29.085271
        ]
    },
    {
        "name": "Konyal\u0131lar Etli Ekmek",
        "coordinates": [
            40.9697194,
            29.0848754
        ]
    },
    {
        "name": "Hasan Usta",
        "coordinates": [
            40.9610348,
            29.0838474
        ]
    },
    {
        "name": "Borsa Lokantas\u0131",
        "coordinates": [
            40.9620372,
            29.0768541
        ]
    },
    {
        "name": "Egenin \u0130ncisi",
        "coordinates": [
            40.9650718,
            29.0878081
        ]
    },
    {
        "name": "Yerinde Pide",
        "coordinates": [
            40.9649704,
            29.0878928
        ]
    },
    {
        "name": "Hac\u0131ba\u015far",
        "coordinates": [
            40.9724359,
            29.0826534
        ]
    },
    {
        "name": "Hababam K\u00f6fte",
        "coordinates": [
            40.9617578,
            29.0846899
        ]
    },
    {
        "name": "Patl\u0131can Cafe & Ev Yemekleri",
        "coordinates": [
            40.9698435,
            29.0859124
        ]
    },
    {
        "name": "fitty feed - clean eating",
        "coordinates": [
            40.9734952,
            29.0567911
        ]
    },
    {
        "name": "Kipos Bal\u0131k",
        "coordinates": [
            41.006998,
            29.0332846
        ]
    },
    {
        "name": "Benusen Restoran",
        "coordinates": [
            40.9894677,
            29.0224099
        ]
    },
    {
        "name": "Bop Breakfast Of Pan",
        "coordinates": [
            40.9954453,
            29.0280646
        ]
    },
    {
        "name": "Levent Pide & B\u00f6rek Salonu",
        "coordinates": [
            40.9953228,
            29.0292582
        ]
    },
    {
        "name": "Tonton Efendi",
        "coordinates": [
            40.9955485,
            29.0294218
        ]
    },
    {
        "name": "Kadim \u0130\u015fkembe Salonu",
        "coordinates": [
            40.9897419,
            29.0264442
        ]
    },
    {
        "name": "Balon Cafe",
        "coordinates": [
            40.9911812,
            29.0192524
        ]
    },
    {
        "name": "Bal\u0131k\u00e7\u0131 Lokantas\u0131",
        "coordinates": [
            40.9937337,
            29.0257728
        ]
    },
    {
        "name": "Yelde\u011firmeni Cafe",
        "coordinates": [
            40.9931672,
            29.0306442
        ]
    },
    {
        "name": "Saca",
        "coordinates": [
            40.9739271,
            29.0459455
        ]
    },
    {
        "name": "\u00c7\u00f6m\u00e7em",
        "coordinates": [
            40.9740876,
            29.0457545
        ]
    },
    {
        "name": "Pate Manti",
        "coordinates": [
            40.9583262,
            29.1013501
        ]
    },
    {
        "name": "Tatlises Cig K\u00f6fte",
        "coordinates": [
            40.9570535,
            29.1040878
        ]
    },
    {
        "name": "Hira Ev Yemekleri",
        "coordinates": [
            41.0103237,
            29.0353808
        ]
    },
    {
        "name": "Adana \u00d6z Asmal\u0131 Kebap",
        "coordinates": [
            40.9536518,
            29.0949005
        ]
    },
    {
        "name": "Bar\u0131\u015f B\u00fcfe",
        "coordinates": [
            40.9637713,
            29.0748152
        ]
    },
    {
        "name": "valide",
        "coordinates": [
            41.0097685,
            29.0374538
        ]
    },
    {
        "name": "Saray Muhallebicisi",
        "coordinates": [
            40.9735131,
            29.0484156
        ]
    },
    {
        "name": "Nelipide",
        "coordinates": [
            40.9742511,
            29.0551471
        ]
    },
    {
        "name": "Morko\u00e7",
        "coordinates": [
            40.9733661,
            29.0557306
        ]
    },
    {
        "name": "K\u00f6\u015feba\u015f\u0131",
        "coordinates": [
            40.9716733,
            29.0600503
        ]
    },
    {
        "name": "Cookshop",
        "coordinates": [
            40.9692309,
            29.0644303
        ]
    },
    {
        "name": "Mezze House",
        "coordinates": [
            40.9718943,
            29.0474092
        ]
    },
    {
        "name": "MYTHOS",
        "coordinates": [
            40.9960749,
            29.0192294
        ]
    },
    {
        "name": "Raki & Balik Evi",
        "coordinates": [
            40.989468,
            29.024535
        ]
    },
    {
        "name": "Balaturka",
        "coordinates": [
            40.9689476,
            29.090936
        ]
    },
    {
        "name": "Brasserie Noir",
        "coordinates": [
            40.9591737,
            29.0843753
        ]
    },
    {
        "name": "Ranchero Mexican Restaurant",
        "coordinates": [
            40.9588389,
            29.0821066
        ]
    },
    {
        "name": "Casita",
        "coordinates": [
            40.9642574,
            29.0738083
        ]
    },
    {
        "name": "Bafetto Caddebostan",
        "coordinates": [
            40.9675265,
            29.0657203
        ]
    },
    {
        "name": "Dardenia",
        "coordinates": [
            40.967842,
            29.0660719
        ]
    },
    {
        "name": "Cadd\u00ea \u0130st'klal D\u00f6ner",
        "coordinates": [
            40.991394,
            29.028178
        ]
    },
    {
        "name": "OnurBalaban",
        "coordinates": [
            40.9674481,
            29.093233
        ]
    },
    {
        "name": "Sahan Kebap",
        "coordinates": [
            40.9665639,
            29.0632222
        ]
    },
    {
        "name": "Caddebostan Meyhanesi",
        "coordinates": [
            40.9663109,
            29.0632457
        ]
    },
    {
        "name": "Aida vino e Cucina",
        "coordinates": [
            40.9855182,
            29.0254503
        ]
    },
    {
        "name": "AKO Adapazar\u0131 Islama K\u00f6fte",
        "coordinates": [
            40.9909803,
            29.0242398
        ]
    },
    {
        "name": "Karde\u015fim Kebap",
        "coordinates": [
            41.0089983,
            29.0369241
        ]
    },
    {
        "name": "G\u00fcne\u015fin Sofras\u0131",
        "coordinates": [
            40.9894547,
            29.0298701
        ]
    },
    {
        "name": "Kebap\u00e7\u0131 \u0130skender",
        "coordinates": [
            40.9902293,
            29.0228753
        ]
    },
    {
        "name": "Le-Pi",
        "coordinates": [
            40.9899304,
            29.0261844
        ]
    },
    {
        "name": "\u0130kizler Tekirda\u011f K\u00f6ftecisi",
        "coordinates": [
            40.9891621,
            29.029544
        ]
    },
    {
        "name": "Bostanc\u0131 Fas\u0131l",
        "coordinates": [
            40.9543327,
            29.0953819
        ]
    },
    {
        "name": "Simit\u00e7i \u0130bo",
        "coordinates": [
            40.995369,
            29.0292443
        ]
    },
    {
        "name": "Bayd\u00f6ner",
        "coordinates": [
            40.9906249,
            29.0246491
        ]
    },
    {
        "name": "Happy Moon's",
        "coordinates": [
            40.9880961,
            29.0284254
        ]
    },
    {
        "name": "Sakl\u0131 K\u00f6\u015fk",
        "coordinates": [
            40.9836848,
            29.0252705
        ]
    },
    {
        "name": "Kassab K\u00f6fte & D\u00f6ner",
        "coordinates": [
            40.9820554,
            29.0230163
        ]
    },
    {
        "name": "Pizza il forno",
        "coordinates": [
            40.9813124,
            29.023365
        ]
    },
    {
        "name": "Pizza Locale",
        "coordinates": [
            40.9804234,
            29.0237754
        ]
    },
    {
        "name": "Me\u015fhur Selanik Kuru Fasulyecisi",
        "coordinates": [
            40.9856178,
            29.0252467
        ]
    },
    {
        "name": "Alpas Burger",
        "coordinates": [
            40.9862026,
            29.0253063
        ]
    },
    {
        "name": "Dilo bar",
        "coordinates": [
            40.9886664,
            29.0231568
        ]
    },
    {
        "name": "K\u00f6fteci Yusuf",
        "coordinates": [
            40.9572563,
            29.0971983
        ]
    },
    {
        "name": "\u0130rem'in Mutfa\u011f\u0131",
        "coordinates": [
            40.9936238,
            29.0383023
        ]
    },
    {
        "name": "Danilo's Pizza",
        "coordinates": [
            40.9667884,
            29.0677157
        ]
    },
    {
        "name": "Saki Bal\u0131k",
        "coordinates": [
            40.9647709,
            29.0661988
        ]
    },
    {
        "name": "Mercan Kokorec",
        "coordinates": [
            40.9908174,
            29.0245465
        ]
    },
    {
        "name": "Kitchen 35",
        "coordinates": [
            40.9847503,
            29.0864671
        ]
    },
    {
        "name": "Misina",
        "coordinates": [
            40.9682345,
            29.0577648
        ]
    },
    {
        "name": "Mykonos Bal\u0131k",
        "coordinates": [
            40.9653526,
            29.0667222
        ]
    },
    {
        "name": "Dr. Lokma",
        "coordinates": [
            40.9663845,
            29.0676798
        ]
    },
    {
        "name": "Rita Moda",
        "coordinates": [
            40.9839019,
            29.0263873
        ]
    },
    {
        "name": "Fenerbah\u00e7e \u0130\u015fkembe Salonu",
        "coordinates": [
            40.9943298,
            29.0371606
        ]
    },
    {
        "name": "K\u0131z\u0131ltoprak D\u00fcr\u00fcmc\u00fcs\u00fc",
        "coordinates": [
            40.9848462,
            29.0430781
        ]
    },
    {
        "name": "Pizza Lazza",
        "coordinates": [
            40.9942228,
            29.0369843
        ]
    },
    {
        "name": "Ac\u0131badem Sahra Kebap Ve D\u00fcr\u00fcm Evi",
        "coordinates": [
            41.0006103,
            29.0399603
        ]
    },
    {
        "name": "Et-Inn Kebap&Steak",
        "coordinates": [
            40.982077,
            29.0893307
        ]
    },
    {
        "name": "Bodrum Mant\u0131 & Cafe \u015ea\u015fk\u0131nbakkal",
        "coordinates": [
            40.9634599,
            29.0743529
        ]
    },
    {
        "name": "Jeni Falafel & Rolls",
        "coordinates": [
            40.9616493,
            29.0750615
        ]
    },
    {
        "name": "Nevince Ev Yemekleri",
        "coordinates": [
            40.9544582,
            29.0938968
        ]
    },
    {
        "name": "Fatih B\u00f6rek\u00e7isi",
        "coordinates": [
            40.9545736,
            29.0939484
        ]
    },
    {
        "name": "\u0130zol B\u00f6rek",
        "coordinates": [
            40.955426,
            29.0942023
        ]
    },
    {
        "name": "G\u00fcnayd\u0131n",
        "coordinates": [
            40.9593191,
            29.0724232
        ]
    },
    {
        "name": "Gala Kokore\u00e7",
        "coordinates": [
            40.9916464,
            29.0316536
        ]
    },
    {
        "name": "Mecitin Antakya Mutfa\u011f\u0131",
        "coordinates": [
            40.9747388,
            29.0805806
        ]
    },
    {
        "name": "Erenk\u00f6y Sar\u0131yer B\u00f6rek\u00e7isi",
        "coordinates": [
            40.9730098,
            29.0830529
        ]
    },
    {
        "name": "\u0130rfan Usta Lahmacun",
        "coordinates": [
            40.9686824,
            29.0855449
        ]
    },
    {
        "name": "K\u00f6fteci Yusuf",
        "coordinates": [
            40.969579,
            29.1014947
        ]
    },
    {
        "name": "K\u00f6\u015fk Pide Lahmacun",
        "coordinates": [
            40.9856858,
            29.0375015
        ]
    },
    {
        "name": "Mersinli Ci\u011ferci Ahmet Usta",
        "coordinates": [
            40.9873736,
            29.0342446
        ]
    },
    {
        "name": "D\u00f6nerci Hamdi Usta",
        "coordinates": [
            40.9695578,
            29.0844801
        ]
    },
    {
        "name": "Akveren Makarna",
        "coordinates": [
            40.9909738,
            29.0251074
        ]
    },
    {
        "name": "Ci\u011ferci Hulusi",
        "coordinates": [
            40.9889184,
            29.0225016
        ]
    },
    {
        "name": "Destan Halk Lokantas\u0131",
        "coordinates": [
            40.9890873,
            29.0236858
        ]
    },
    {
        "name": "Hac\u0131o\u011flu",
        "coordinates": [
            40.994543,
            29.0250333
        ]
    },
    {
        "name": "Kad\u0131k\u00f6y Merkez B\u00f6rek\u00e7isi",
        "coordinates": [
            40.9902989,
            29.0245913
        ]
    },
    {
        "name": "Hac\u0131ba\u015far Kebap",
        "coordinates": [
            40.9996078,
            29.03839
        ]
    },
    {
        "name": "Taner B\u00f6rek",
        "coordinates": [
            41.0009709,
            29.040498
        ]
    },
    {
        "name": "Tarihi Kad\u0131k\u00f6y D\u00f6nercisi",
        "coordinates": [
            41.0015821,
            29.0407531
        ]
    },
    {
        "name": "Konoha Susi",
        "coordinates": [
            41.0016549,
            29.0404506
        ]
    },
    {
        "name": "Crumble Mant\u0131 Evi",
        "coordinates": [
            40.9921555,
            29.0290183
        ]
    },
    {
        "name": "Erdal \u015eef",
        "coordinates": [
            40.9995253,
            29.0390037
        ]
    },
    {
        "name": "Arka Bahce",
        "coordinates": [
            40.9966215,
            29.0290552
        ]
    },
    {
        "name": "Emirzade",
        "coordinates": [
            41.0011084,
            29.0406933
        ]
    },
    {
        "name": "Arsemia",
        "coordinates": [
            41.0009896,
            29.0420888
        ]
    },
    {
        "name": "Damla Pide",
        "coordinates": [
            40.9962827,
            29.0291048
        ]
    },
    {
        "name": "Hasanpa\u015fa Kurufasulyecisi",
        "coordinates": [
            40.9948444,
            29.0414056
        ]
    },
    {
        "name": "G\u00fcler Osmanl\u0131 Mutfa\u011f\u0131",
        "coordinates": [
            40.9948591,
            29.0412343
        ]
    },
    {
        "name": "\u00c7atana",
        "coordinates": [
            40.9536895,
            29.0900869
        ]
    },
    {
        "name": "Welldone",
        "coordinates": [
            40.9566999,
            29.0790479
        ]
    },
    {
        "name": "Eftalya Bal\u0131k",
        "coordinates": [
            40.959153,
            29.0725386
        ]
    },
    {
        "name": "Lale \u00c7orba Kokore\u00e7",
        "coordinates": [
            40.9828771,
            29.0658568
        ]
    },
    {
        "name": "Kozanl\u0131 Kebap",
        "coordinates": [
            40.9760853,
            29.0964205
        ]
    },
    {
        "name": "Ar\u0131 Pide & B\u00f6rek",
        "coordinates": [
            40.9765854,
            29.0969015
        ]
    },
    {
        "name": "K\u00f6fteci \u015e\u00fckr\u00fc",
        "coordinates": [
            40.9536504,
            29.0948181
        ]
    },
    {
        "name": "Tun\u00e7 Bal\u0131k",
        "coordinates": [
            40.9643531,
            29.0646313
        ]
    },
    {
        "name": "Adadan Bal\u0131k",
        "coordinates": [
            40.9530478,
            29.0948716
        ]
    },
    {
        "name": "Evim Ocakba\u015f\u0131",
        "coordinates": [
            40.9531621,
            29.0950143
        ]
    },
    {
        "name": "Kuyuba\u015f\u0131 Bal\u0131k\u00e7\u0131s\u0131",
        "coordinates": [
            40.9854493,
            29.0489398
        ]
    },
    {
        "name": "K\u00f6y\u00fcm Pide",
        "coordinates": [
            40.9813211,
            29.0800864
        ]
    },
    {
        "name": "Burak Iskender Kebab",
        "coordinates": [
            40.9721225,
            29.0776635
        ]
    },
    {
        "name": "M\u00fcsaade Meyhane",
        "coordinates": [
            40.9889231,
            29.0243632
        ]
    },
    {
        "name": "D\u00f6nerci Necip Usta",
        "coordinates": [
            40.9810548,
            29.0723442
        ]
    },
    {
        "name": "Pilav Saray\u0131",
        "coordinates": [
            40.989598,
            29.0271161
        ]
    },
    {
        "name": "\u00c7alaka\u015f\u0131k",
        "coordinates": [
            40.9896169,
            29.0275664
        ]
    },
    {
        "name": "\u00d6z Sar\u0131yer B\u00f6rek ve Pide Salonu",
        "coordinates": [
            40.9794652,
            29.0834894
        ]
    },
    {
        "name": "Saltbae",
        "coordinates": [
            40.9665698,
            29.069521
        ]
    },
    {
        "name": "Pilav House",
        "coordinates": [
            40.9846256,
            29.0516574
        ]
    },
    {
        "name": "Ethem Efendi Kahvalt\u0131",
        "coordinates": [
            40.9715131,
            29.0740186
        ]
    },
    {
        "name": "Gaziantep Lahmacun Pide",
        "coordinates": [
            40.973326,
            29.0625291
        ]
    },
    {
        "name": "Keban B\u00f6rek",
        "coordinates": [
            40.9838064,
            29.0594237
        ]
    },
    {
        "name": "\u00d6z Ci\u011ferci Abe",
        "coordinates": [
            40.9874403,
            29.0447238
        ]
    },
    {
        "name": "D\u00fcr\u00fcmc\u00fc Bey",
        "coordinates": [
            40.9798233,
            29.0762873
        ]
    },
    {
        "name": "Babu\u015f Hatay D\u00f6ner & K\u00f6fte",
        "coordinates": [
            40.9849445,
            29.0503584
        ]
    },
    {
        "name": "Bazlama \u0130stasyonu",
        "coordinates": [
            40.9849846,
            29.0502467
        ]
    },
    {
        "name": "Mirzabey Beyran Pa\u00e7a Evi",
        "coordinates": [
            40.9851018,
            29.0497987
        ]
    },
    {
        "name": "Fit\u00e7i House",
        "coordinates": [
            40.9928433,
            29.026315
        ]
    },
    {
        "name": "Taner B\u00f6rek",
        "coordinates": [
            40.9808523,
            29.089783
        ]
    },
    {
        "name": "Seyithan \u0130\u015fkembe",
        "coordinates": [
            40.9808182,
            29.0913674
        ]
    },
    {
        "name": "Pavlonya Meyhanesi",
        "coordinates": [
            40.9895994,
            29.0260776
        ]
    },
    {
        "name": "Livane",
        "coordinates": [
            40.9900863,
            29.0277936
        ]
    },
    {
        "name": "Cheef Moses",
        "coordinates": [
            40.982051,
            29.0672225
        ]
    },
    {
        "name": "Mesadin Restaurant",
        "coordinates": [
            40.9888623,
            29.022669
        ]
    },
    {
        "name": "Borsam Tasfirin",
        "coordinates": [
            40.9896288,
            29.0270148
        ]
    },
    {
        "name": "Duble Muhabbet",
        "coordinates": [
            40.9858229,
            29.0250969
        ]
    },
    {
        "name": "Adana \u0130\u015fi",
        "coordinates": [
            40.9799285,
            29.0840027
        ]
    },
    {
        "name": "Yakamoz Bal\u0131k\u00e7\u0131s\u0131",
        "coordinates": [
            40.9805142,
            29.0754541
        ]
    },
    {
        "name": "\u00c7i\u011f K\u00f6fteci Gakgo\u015f Usta",
        "coordinates": [
            40.9817605,
            29.0408577
        ]
    },
    {
        "name": "K\u00f6fteci Yusuf",
        "coordinates": [
            40.9774139,
            29.0792092
        ]
    },
    {
        "name": "Anadolu Huzur Lokantas\u0131",
        "coordinates": [
            40.9805331,
            29.0757512
        ]
    },
    {
        "name": "Asirlik Balik",
        "coordinates": [
            40.9893748,
            29.0242994
        ]
    },
    {
        "name": "\u015eim\u015fek D\u00f6ner",
        "coordinates": [
            40.9898531,
            29.030934
        ]
    },
    {
        "name": "Maharet Kebap Lahmacun",
        "coordinates": [
            40.9828092,
            29.0660604
        ]
    },
    {
        "name": "Cennet G\u00f6zleme Evi",
        "coordinates": [
            40.9815403,
            29.0702581
        ]
    },
    {
        "name": "Monsh",
        "coordinates": [
            40.9828481,
            29.0659317
        ]
    },
    {
        "name": "Hac\u0131bey",
        "coordinates": [
            40.9815617,
            29.0703585
        ]
    },
    {
        "name": "Schnitzel Landmann",
        "coordinates": [
            40.977083,
            29.0794176
        ]
    },
    {
        "name": "Ada Pide",
        "coordinates": [
            40.9828314,
            29.0659953
        ]
    },
    {
        "name": "Fi\u00e7\u00e7i House",
        "coordinates": [
            40.9920871,
            29.0314417
        ]
    },
    {
        "name": "Leylak",
        "coordinates": [
            40.994476,
            29.0298238
        ]
    },
    {
        "name": "Lokma Ta\u015ff\u0131r\u0131n",
        "coordinates": [
            40.9947853,
            29.0296759
        ]
    },
    {
        "name": "crep Street Food",
        "coordinates": [
            40.9945837,
            29.0292878
        ]
    },
    {
        "name": "Ako\u011fuz Izgara ve Ev Yemekleri",
        "coordinates": [
            40.9949447,
            29.0295845
        ]
    },
    {
        "name": "Vatka Coffe & Vegan",
        "coordinates": [
            40.9852061,
            29.0282813
        ]
    },
    {
        "name": "+852 Hong Kong",
        "coordinates": [
            40.9837352,
            29.0288563
        ]
    },
    {
        "name": "\u00c7iya Sofras\u0131",
        "coordinates": [
            40.9893469,
            29.0244294
        ]
    },
    {
        "name": "Turp",
        "coordinates": [
            40.9851717,
            29.0232763
        ]
    },
    {
        "name": "M\u00fcjgan",
        "coordinates": [
            40.9957955,
            29.0302414
        ]
    },
    {
        "name": "Daily Dana",
        "coordinates": [
            40.9730236,
            29.0411109
        ]
    },
    {
        "name": "B\u00fclent B\u00f6rek\u00e7ilik",
        "coordinates": [
            40.9669999,
            29.086368
        ]
    },
    {
        "name": "Healty & Happt Ekolojik Kitchen",
        "coordinates": [
            40.9859056,
            29.0274276
        ]
    },
    {
        "name": "Khalkedon Fenerbah\u00e7e",
        "coordinates": [
            40.969129,
            29.0372054
        ]
    },
    {
        "name": "Suadiye Bal\u0131k",
        "coordinates": [
            40.9568634,
            29.0808013
        ]
    },
    {
        "name": "Rossi",
        "coordinates": [
            40.9569666,
            29.0809136
        ]
    },
    {
        "name": "Tike Suadiye",
        "coordinates": [
            40.9569723,
            29.0801586
        ]
    },
    {
        "name": "The House Cafe",
        "coordinates": [
            40.9573325,
            29.080762
        ]
    },
    {
        "name": "Simit \u0130nn",
        "coordinates": [
            40.9641442,
            29.0891498
        ]
    },
    {
        "name": "Wayana",
        "coordinates": [
            40.9812996,
            29.0226578
        ]
    },
    {
        "name": "Tavuk D\u00fcnyas\u0131",
        "coordinates": [
            40.9688881,
            29.0848121
        ]
    },
    {
        "name": "Bafra Pide",
        "coordinates": [
            40.9752534,
            29.0959801
        ]
    },
    {
        "name": "Hac\u0131ba\u015far",
        "coordinates": [
            40.9751038,
            29.0948784
        ]
    },
    {
        "name": "Borsa Lokantas\u0131 Caddebostan",
        "coordinates": [
            40.9665901,
            29.0683446
        ]
    },
    {
        "name": "Pizzorroo",
        "coordinates": [
            40.9721579,
            29.0611685
        ]
    },
    {
        "name": "G\u00fcnayd\u0131n Kalam\u0131\u015f",
        "coordinates": [
            40.9775448,
            29.0409773
        ]
    },
    {
        "name": "Food House",
        "coordinates": [
            40.9705488,
            29.0799882
        ]
    },
    {
        "name": "K\u00f6fteci Yusuf",
        "coordinates": [
            40.9849716,
            29.0395235
        ]
    },
    {
        "name": "BAP",
        "coordinates": [
            40.9703329,
            29.0756835
        ]
    },
    {
        "name": "Midpoint",
        "coordinates": [
            40.9610211,
            29.0795971
        ]
    },
    {
        "name": "Me\u015fhur Menemenci Cemal Polat",
        "coordinates": [
            40.9900444,
            29.0262706
        ]
    },
    {
        "name": "Divan Pub Erenk\u00f6y",
        "coordinates": [
            40.9649774,
            29.0726985
        ]
    },
    {
        "name": "K\u00f6fteci Yusuf Bostanc\u0131 \u0130skele",
        "coordinates": [
            40.9525173,
            29.0931334
        ]
    },
    {
        "name": "G\u00fcnayd\u0131n Suadiye Kasap & Steakhouse",
        "coordinates": [
            40.9616579,
            29.0790005
        ]
    },
    {
        "name": "Murat \u0130skender",
        "coordinates": [
            40.9682678,
            29.0710729
        ]
    },
    {
        "name": "Havva Han\u0131m & Ballaturka",
        "coordinates": [
            40.9647121,
            29.0878942
        ]
    },
    {
        "name": "Hac\u0131 Ali Ocakba\u015f\u0131",
        "coordinates": [
            40.9801349,
            29.0861442
        ]
    },
    {
        "name": "Kimyon",
        "coordinates": [
            40.9867504,
            29.0267703
        ]
    },
    {
        "name": "Marina Bal\u0131k",
        "coordinates": [
            40.967107,
            29.0927128
        ]
    },
    {
        "name": "Nezih Dokuz Ondokuz",
        "coordinates": [
            40.9634184,
            29.0770212
        ]
    },
    {
        "name": "Ethem Et & Adana Kebap",
        "coordinates": [
            40.9722072,
            29.0740471
        ]
    },
    {
        "name": "Mila",
        "coordinates": [
            40.9882663,
            29.0279775
        ]
    },
    {
        "name": "\u015eirin Lokanta",
        "coordinates": [
            40.9824096,
            29.0651569
        ]
    },
    {
        "name": "K\u00fcmes Pili\u00e7",
        "coordinates": [
            40.979965,
            29.0781914
        ]
    },
    {
        "name": "S\u00fcttat",
        "coordinates": [
            40.9750631,
            29.0468415
        ]
    },
    {
        "name": "Cookshop",
        "coordinates": [
            40.9615213,
            29.0775542
        ]
    },
    {
        "name": "Anne Meze",
        "coordinates": [
            40.9679482,
            29.0748177
        ]
    },
    {
        "name": "Yeni Meyhane",
        "coordinates": [
            40.9898566,
            29.027761
        ]
    },
    {
        "name": "Strada Suadiye",
        "coordinates": [
            40.9585963,
            29.0848885
        ]
    },
    {
        "name": "Sahan",
        "coordinates": [
            40.9584543,
            29.0851462
        ]
    },
    {
        "name": "Bebe \u0130\u00e7li K\u00f6fte",
        "coordinates": [
            40.9615386,
            29.0841231
        ]
    },
    {
        "name": "\u015ea\u015fk\u0131nbal\u0131k",
        "coordinates": [
            40.9638041,
            29.0768832
        ]
    },
    {
        "name": "Vefal\u0131 K\u00f6fteci",
        "coordinates": [
            40.9647834,
            29.075038
        ]
    },
    {
        "name": "Han Restoran",
        "coordinates": [
            40.9638318,
            29.0747095
        ]
    },
    {
        "name": "Antebi",
        "coordinates": [
            40.9715899,
            29.0518074
        ]
    },
    {
        "name": "Artois Cadde",
        "coordinates": [
            40.9672686,
            29.0651504
        ]
    },
    {
        "name": "Beyo\u011flu \u00c7orbac\u0131s\u0131",
        "coordinates": [
            40.9893704,
            29.0329195
        ]
    },
    {
        "name": "\u00c7e\u015fme Bazlama Kahvalt\u0131",
        "coordinates": [
            40.9629092,
            29.0748288
        ]
    },
    {
        "name": "D\u00f6nerci Hamdi Usta",
        "coordinates": [
            40.9722361,
            29.0589875
        ]
    },
    {
        "name": "A.\u00c7.T D\u00dcR\u00dcM ve MEZE",
        "coordinates": [
            40.9946385,
            29.0299336
        ]
    },
    {
        "name": "Rota",
        "coordinates": [
            40.9896626,
            29.0246818
        ]
    },
    {
        "name": "Lahmacun D\u00fckkani",
        "coordinates": [
            40.9914457,
            29.0301497
        ]
    },
    {
        "name": "Voglia",
        "coordinates": [
            40.9641846,
            29.0753706
        ]
    },
    {
        "name": "Adam's Pizza",
        "coordinates": [
            40.9813013,
            29.0500952
        ]
    },
    {
        "name": "Pizza Locale",
        "coordinates": [
            40.9644793,
            29.0744872
        ]
    },
    {
        "name": "K\u00f6ro\u011flu Yufka Mant\u0131",
        "coordinates": [
            40.9812582,
            29.0500793
        ]
    },
    {
        "name": "K\u0131r\u0131nt\u0131",
        "coordinates": [
            40.9655706,
            29.0715649
        ]
    },
    {
        "name": "Marmarisium b\u00fcfe",
        "coordinates": [
            40.9734379,
            29.0749005
        ]
    },
    {
        "name": "Pizza Hut",
        "coordinates": [
            40.9659381,
            29.0868546
        ]
    },
    {
        "name": "The Townhouse",
        "coordinates": [
            40.957966,
            29.0817197
        ]
    },
    {
        "name": "Murat Kebap",
        "coordinates": [
            40.9724935,
            29.0685744
        ]
    },
    {
        "name": "The Munch Street Food",
        "coordinates": [
            40.9740949,
            29.0657548
        ]
    },
    {
        "name": "Metet K\u00f6zde D\u00f6ner",
        "coordinates": [
            40.9720839,
            29.0615913
        ]
    },
    {
        "name": "K\u00f6\u015fem Karadeniz Pide",
        "coordinates": [
            40.9719806,
            29.0615001
        ]
    },
    {
        "name": "Tellio\u011flu Trabzon Pidecisi 1985",
        "coordinates": [
            40.9706891,
            29.1003635
        ]
    },
    {
        "name": "Valibey Kebap & K\u00fcnefe",
        "coordinates": [
            40.9708019,
            29.0992371
        ]
    },
    {
        "name": "Pizz'ALL",
        "coordinates": [
            40.9615693,
            29.0841498
        ]
    },
    {
        "name": "Ayval\u0131k Fener Yolu Bal\u0131k\u00e7\u0131s\u0131",
        "coordinates": [
            40.9773277,
            29.0472723
        ]
    },
    {
        "name": "PizzaTeo",
        "coordinates": [
            40.9657362,
            29.0727901
        ]
    },
    {
        "name": "Felek Mangalba\u015f\u0131",
        "coordinates": [
            40.9593534,
            29.0728194
        ]
    },
    {
        "name": "House of B",
        "coordinates": [
            40.9602201,
            29.0822116
        ]
    },
    {
        "name": "ay\u0131k \u00e7orba kebap",
        "coordinates": [
            40.9890876,
            29.0244859
        ]
    },
    {
        "name": "\u00c7ilingir Sofras\u0131",
        "coordinates": [
            40.9675518,
            29.0661339
        ]
    },
    {
        "name": "Verdura",
        "coordinates": [
            40.9593946,
            29.0809701
        ]
    },
    {
        "name": "Cadde \u0130st'klal",
        "coordinates": [
            40.9912724,
            29.0279794
        ]
    },
    {
        "name": "Koko Must\u0131 Kelle Pa\u00e7a \u0130\u015fkembe",
        "coordinates": [
            40.967101,
            29.0863084
        ]
    },
    {
        "name": "The Wall Suadiye",
        "coordinates": [
            40.9631911,
            29.0756034
        ]
    },
    {
        "name": "Melopee Suadiye",
        "coordinates": [
            40.9630483,
            29.0758981
        ]
    },
    {
        "name": "The Rua Suadiye",
        "coordinates": [
            40.9583096,
            29.0864199
        ]
    },
    {
        "name": "Taner B\u00f6rek",
        "coordinates": [
            40.9631189,
            29.0767539
        ]
    },
    {
        "name": "Taner B\u00f6rek",
        "coordinates": [
            40.9719975,
            29.097155
        ]
    },
    {
        "name": "Unpak",
        "coordinates": [
            40.9673464,
            29.0670001
        ]
    },
    {
        "name": "\u015eevketin Yeri Samsun Pidesi & Mant\u0131",
        "coordinates": [
            40.9773681,
            29.047102
        ]
    },
    {
        "name": "SO\u0130 Cadde",
        "coordinates": [
            40.9694194,
            29.0642352
        ]
    },
    {
        "name": "Palulu Cumali Adana Kebap\u00e7\u0131s\u0131",
        "coordinates": [
            40.9810447,
            29.0751454
        ]
    },
    {
        "name": "Chinese & Sushi Express",
        "coordinates": [
            40.986011,
            29.0251921
        ]
    },
    {
        "name": "Bizim Ev Moda",
        "coordinates": [
            40.9852365,
            29.0250124
        ]
    },
    {
        "name": "Direkli K\u00f6ftecisi",
        "coordinates": [
            40.9855267,
            29.0251859
        ]
    },
    {
        "name": "Gorgonzo",
        "coordinates": [
            40.9849775,
            29.0268614
        ]
    },
    {
        "name": "2Bites",
        "coordinates": [
            40.9853922,
            29.0257748
        ]
    },
    {
        "name": "Y\u0131ld\u0131z 3 K\u00f6fte Salonu",
        "coordinates": [
            40.9851607,
            29.0264767
        ]
    },
    {
        "name": "Hardy's Burger",
        "coordinates": [
            40.9930231,
            29.0302192
        ]
    },
    {
        "name": "Hayati Express",
        "coordinates": [
            40.987738,
            29.025371
        ]
    },
    {
        "name": "Kad\u0131 Lokantasi",
        "coordinates": [
            40.9929689,
            29.0301332
        ]
    },
    {
        "name": "G\u00f6n\u00fcl Abla Ev Yemeklero",
        "coordinates": [
            40.9842763,
            29.0233031
        ]
    },
    {
        "name": "Sinop Mant\u0131 Evi",
        "coordinates": [
            40.9760297,
            29.049823
        ]
    },
    {
        "name": "Emay\u2019s Cuisine",
        "coordinates": [
            40.9575695,
            29.0872443
        ]
    },
    {
        "name": "Sliceguy",
        "coordinates": [
            40.9865531,
            29.0266676
        ]
    },
    {
        "name": "Sakura Sushi Bar",
        "coordinates": [
            40.9867499,
            29.0266527
        ]
    },
    {
        "name": "Fit House",
        "coordinates": [
            40.9669421,
            29.0667525
        ]
    },
    {
        "name": "SALT Fried Chicken",
        "coordinates": [
            40.9670014,
            29.0667986
        ]
    },
    {
        "name": "Palmiye Et Lokantas\u0131",
        "coordinates": [
            40.9807803,
            29.0511621
        ]
    },
    {
        "name": "Panzarotti",
        "coordinates": [
            40.9919873,
            29.0286227
        ]
    },
    {
        "name": "D\u00f6nerci Mehmet Usta",
        "coordinates": [
            40.9753578,
            29.0528754
        ]
    },
    {
        "name": "Zoo",
        "coordinates": [
            40.9876721,
            29.0258516
        ]
    },
    {
        "name": "Payyar Ocakba\u015f\u0131",
        "coordinates": [
            40.9711516,
            29.0390594
        ]
    },
    {
        "name": "Homemade",
        "coordinates": [
            40.9727861,
            29.0404859
        ]
    },
    {
        "name": "Metet K\u00f6zde D\u00f6ner",
        "coordinates": [
            40.971902,
            29.0521345
        ]
    },
    {
        "name": "RUB",
        "coordinates": [
            40.9602599,
            29.0832126
        ]
    },
    {
        "name": "Shake Shack",
        "coordinates": [
            40.9621843,
            29.0773763
        ]
    },
    {
        "name": "\u0130ntiba D\u00f6ner",
        "coordinates": [
            41.0028249,
            29.0434584
        ]
    },
    {
        "name": "Taner B\u00f6rek",
        "coordinates": [
            40.9840731,
            29.0390704
        ]
    },
    {
        "name": "\u00dcsk\u00fcp K\u00f6fte",
        "coordinates": [
            40.9842035,
            29.0389107
        ]
    },
    {
        "name": "O\u015fifa \u00c7i\u011fk\u00f6fte",
        "coordinates": [
            40.9747453,
            29.0532036
        ]
    },
    {
        "name": "Z\u00fcrafa no 203",
        "coordinates": [
            40.9739718,
            29.0556437
        ]
    },
    {
        "name": "Sinop Mant\u0131",
        "coordinates": [
            40.9738896,
            29.0557756
        ]
    },
    {
        "name": "Bedri Usta \u00c7iftehavuzlar Pide & Lahmacun",
        "coordinates": [
            40.9737145,
            29.0561485
        ]
    },
    {
        "name": "Ethem Efendi Kahvalt\u0131",
        "coordinates": [
            40.9716903,
            29.0605916
        ]
    },
    {
        "name": "Taner B\u00f6rek",
        "coordinates": [
            40.9815958,
            29.0680033
        ]
    },
    {
        "name": "Ba\u011fdat D\u00f6ner",
        "coordinates": [
            40.9813254,
            29.0679305
        ]
    },
    {
        "name": "2'de 1 K\u00f6fte",
        "coordinates": [
            40.9812429,
            29.0678931
        ]
    },
    {
        "name": "THE WOKSHOP",
        "coordinates": [
            40.9925299,
            29.0252108
        ]
    },
    {
        "name": "Tatar Salim",
        "coordinates": [
            40.9895504,
            29.0244493
        ]
    },
    {
        "name": "K\u00fcff",
        "coordinates": [
            40.9891524,
            29.0306878
        ]
    },
    {
        "name": "Bizim Bal\u0131k Evi",
        "coordinates": [
            40.9743552,
            29.0750976
        ]
    },
    {
        "name": "Spenta Pizza Restaurant & Cocktail Bar",
        "coordinates": [
            40.9823042,
            29.0403898
        ]
    },
    {
        "name": "Nur Kebap Lahmacun Pide salonu",
        "coordinates": [
            40.9829383,
            29.0406617
        ]
    },
    {
        "name": "Ali Ocakba\u015f\u0131",
        "coordinates": [
            40.9595588,
            29.0729346
        ]
    },
    {
        "name": "Ken Sushi",
        "coordinates": [
            40.9595132,
            29.0729783
        ]
    },
    {
        "name": "G\u00fcnayd\u0131n \u015ea\u015fk\u0131nbakkal",
        "coordinates": [
            40.9596702,
            29.0729313
        ]
    },
    {
        "name": "Cotto Gastro",
        "coordinates": [
            40.9607144,
            29.0746753
        ]
    },
    {
        "name": "Lena Restaurant",
        "coordinates": [
            40.9894584,
            29.0270685
        ]
    },
    {
        "name": "Nohut Falafe & Humus",
        "coordinates": [
            40.9890169,
            29.0269142
        ]
    },
    {
        "name": "Yanyal\u0131 Fehmi Lokantas\u0131",
        "coordinates": [
            40.9907651,
            29.025509
        ]
    },
    {
        "name": "\u00c7iya Kebap",
        "coordinates": [
            40.9892858,
            29.0242265
        ]
    },
    {
        "name": "Hani",
        "coordinates": [
            40.9677221,
            29.0660186
        ]
    },
    {
        "name": "Nar Mant\u0131 & Cafe",
        "coordinates": [
            40.9636964,
            29.0837294
        ]
    },
    {
        "name": "The gospel culture",
        "coordinates": [
            40.9872687,
            29.0283306
        ]
    },
    {
        "name": "\u0130\u015f Bankas\u0131 Kalam\u0131\u015f Lokali",
        "coordinates": [
            40.9805652,
            29.0390945
        ]
    },
    {
        "name": "Bedri Usta Kalam\u0131\u015f",
        "coordinates": [
            40.9802034,
            29.0391779
        ]
    },
    {
        "name": "Metet",
        "coordinates": [
            40.9645754,
            29.0881803
        ]
    },
    {
        "name": "Levent B\u00f6rek",
        "coordinates": [
            40.9678211,
            29.0900713
        ]
    },
    {
        "name": "Natur'el Bah\u00e7e",
        "coordinates": [
            40.9688953,
            29.1007571
        ]
    },
    {
        "name": "SushiCo",
        "coordinates": [
            40.9610705,
            29.0776996
        ]
    },
    {
        "name": "Mylos Ayval\u0131k Cunda Mutfa\u011f\u0131",
        "coordinates": [
            41.0054134,
            29.0463288
        ]
    },
    {
        "name": "F\u00fcl F\u00fcl \u00c7orba",
        "coordinates": [
            40.9938593,
            29.0363702
        ]
    },
    {
        "name": "Ha\u00e7apuri",
        "coordinates": [
            40.9936979,
            29.038232
        ]
    },
    {
        "name": "Nebyan",
        "coordinates": [
            40.9828044,
            29.0396086
        ]
    },
    {
        "name": "Maison 39",
        "coordinates": [
            40.9932791,
            29.0396255
        ]
    },
    {
        "name": "Kalarmaria",
        "coordinates": [
            40.9737472,
            29.0458145
        ]
    },
    {
        "name": "Matters Suadiye",
        "coordinates": [
            40.9601518,
            29.0792079
        ]
    },
    {
        "name": "Razaki",
        "coordinates": [
            40.9681008,
            29.0853796
        ]
    },
    {
        "name": "Tatar Salim",
        "coordinates": [
            40.9664869,
            29.0673253
        ]
    },
    {
        "name": "Selfish Tapas Food & Wine",
        "coordinates": [
            40.985998,
            29.0254109
        ]
    },
    {
        "name": "Mutfak Koz",
        "coordinates": [
            40.9659506,
            29.0911238
        ]
    },
    {
        "name": "Bizimkiler Ev Yemekleri",
        "coordinates": [
            40.9703242,
            29.0850592
        ]
    },
    {
        "name": "\u00c7osa",
        "coordinates": [
            40.9756924,
            29.0979221
        ]
    },
    {
        "name": "Nello's",
        "coordinates": [
            40.9691477,
            29.0721587
        ]
    },
    {
        "name": "Beltur",
        "coordinates": [
            40.9955081,
            29.04257
        ]
    },
    {
        "name": "Caf\u00e9 Zanzibar",
        "coordinates": [
            40.964369,
            29.058737299999994
        ]
    },
    {
        "name": "Bedri Usta",
        "coordinates": [
            40.97695151686304,
            29.041233386788278
        ]
    },
    {
        "name": "Ko\u00e7o",
        "coordinates": [
            40.980206910249215,
            29.024494411433114
        ]
    },
    {
        "name": "Paysage",
        "coordinates": [
            40.97400152111842,
            29.03583888619046
        ]
    },
    {
        "name": "Develi Marin",
        "coordinates": [
            40.975873260645145,
            29.03996236920665
        ]
    },
    {
        "name": "Posh",
        "coordinates": [
            40.97608431693742,
            29.041217254569858
        ]
    },
    {
        "name": "Agapia Meyhanesi",
        "coordinates": [
            40.986409311972764,
            29.026607272547107
        ]
    },
    {
        "name": "Develi Kebap Kalam\u0131\u015f",
        "coordinates": [
            40.97650555798612,
            29.03962406344882
        ]
    },
    {
        "name": "Divan Brasserie Kalam\u0131\u015f",
        "coordinates": [
            40.97620795429268,
            29.040380319391478
        ]
    },
    {
        "name": "Hai! Sushi",
        "coordinates": [
            40.97639929478719,
            29.040758296483368
        ]
    },
    {
        "name": "Todori",
        "coordinates": [
            40.97678609543125,
            29.041754249112888
        ]
    },
    {
        "name": "KA'hve",
        "coordinates": [
            40.98238785555621,
            29.037043403488894
        ]
    },
    {
        "name": "Cundac\u0131",
        "coordinates": [
            40.981523114499964,
            29.03805783509106
        ]
    },
    {
        "name": "Develi Kalam\u0131\u015f",
        "coordinates": [
            40.97652209754759,
            29.039718573869425
        ]
    },
    {
        "name": "Happy Moon's Fenerbah\u00e7e",
        "coordinates": [
            40.970171230762105,
            29.038551369432806
        ]
    },
    {
        "name": "Midpoint",
        "coordinates": [
            40.9712380334857,
            29.03862281175468
        ]
    },
    {
        "name": "Beer's",
        "coordinates": [
            40.95255818630237,
            29.09448478670038
        ]
    },
    {
        "name": "Yemekhane",
        "coordinates": [
            40.987939308847665,
            29.05314207103514
        ]
    },
    {
        "name": "Ceviz A\u011fac\u0131",
        "coordinates": [
            41.01006443204252,
            29.041076235376146
        ]
    },
    {
        "name": "Nurten Ev Yemekleri",
        "coordinates": [
            40.96034838074296,
            29.091224361284556
        ]
    },
    {
        "name": "Milos Restaurant",
        "coordinates": [
            40.976439162841174,
            29.04773125820381
        ]
    },
    {
        "name": "Kokomusti",
        "coordinates": [
            40.969177482351384,
            29.085525994706412
        ]
    },
    {
        "name": "Taunt Potato Club",
        "coordinates": [
            40.98633503850355,
            29.02686580171583
        ]
    },
    {
        "name": "Fetici",
        "coordinates": [
            40.992912612974486,
            29.0273360774621
        ]
    },
    {
        "name": "Agapia Meyhanesi",
        "coordinates": [
            40.98640884053728,
            29.026675095624025
        ]
    },
    {
        "name": "Tenis Cafe",
        "coordinates": [
            40.96487199735249,
            29.058397267085006
        ]
    },
    {
        "name": "Beltur Restaurant",
        "coordinates": [
            40.99558349121727,
            29.043037732730657
        ]
    },
    {
        "name": "Eda Kebap",
        "coordinates": [
            40.9681545,
            29.09542076666667
        ]
    }
]